[{"position":{"lat":35.4213077,"lng":-89.81807289999999},"address":" 13690 US Hwy. 51","zip":"","state":" TN","city":" Atoka","title":" TN","rcType":"Branch","icon":"pinnacle"},{"position":{"lat":35.2090958,"lng":-89.8397665},"address":" 3070 Kirby Whitten Road","zip":"","state":" TN","city":" Bartlett","title":" TN","rcType":"Branch","icon":"pinnacle"},{"position":{"lat":35.0688055,"lng":-89.76173759999999},"address":" 9057 Poplar Ave.","zip":"","state":" TN","city":" Germantown","title":" TN","rcType":"Branch","icon":"pinnacle"},{"position":{"lat":35.114633,"lng":-89.8010685},"address":" 1264 Germantown Road","zip":"","state":" TN","city":" Germantown","title":" TN","rcType":"Branch","icon":"pinnacle"},{"position":{"lat":35.1188322,"lng":-89.9139158},"address":" 4445 Poplar Ave.","zip":"","state":" TN","city":" Memphis","title":" TN","rcType":"Branch","icon":"pinnacle"},{"position":{"lat":35.1054025,"lng":-89.86049679999999},"address":" 949 S. Shady Grove Road","zip":"","state":" TN","city":" Memphis","title":" TN","rcType":"Branch","icon":"pinnacle"},{"position":{"lat":35.186661,"lng":-89.8365438},"address":" 2235 Whitten Road","zip":"","state":" TN","city":" Memphis","title":" TN","rcType":"Branch","icon":"pinnacle"},{"position":{"lat":35.027955,"lng":-90.025574},"address":" 4403 Elvis Presley Blvd.","zip":"","state":" TN","city":" Memphis","title":" TN","rcType":"Branch","icon":"pinnacle"},{"position":{"lat":35.1354476,"lng":-90.0065169},"address":" 155 Rozelle St.","zip":"","state":" TN","city":" Memphis","title":" TN","rcType":"Branch","icon":"pinnacle"},{"position":{"lat":34.9436254,"lng":-89.9356511},"address":" 5740 Getwell Road","zip":"","state":" MS","city":" Southaven","title":" MS","rcType":"Branch","icon":"pinnacle"}]