[{"position":{"lat":35.1484616,"lng":-89.91427829999999},"address":" 4383 Summer Ave.","zip":"","state":" TN","city":" Memphis","title":" TN","rcType":"Branch","icon":"regions"},{"position":{"lat":35.1461506,"lng":-90.0145355},"address":" 270 North Cleveland St.","zip":"","state":" TN","city":" Memphis","title":" TN","rcType":"Branch","icon":"regions"},{"position":{"lat":35.1435465,"lng":-90.0539536},"address":" 88 Union Ave.","zip":"","state":" TN","city":" Memphis","title":" TN","rcType":"Branch","icon":"regions"},{"position":{"lat":35.220045,"lng":-89.9769666},"address":" 2595 Frayser Blvd.","zip":"","state":" TN","city":" Memphis","title":" TN","rcType":"Branch","icon":"regions"},{"position":{"lat":35.0495603,"lng":-89.8645231},"address":" 5969 Winchester Rd.","zip":"","state":" TN","city":" Memphis","title":" TN","rcType":"Branch","icon":"regions"},{"position":{"lat":35.0620053,"lng":-89.9388611},"address":" 3751 Lamar Ave.","zip":"","state":" TN","city":" Memphis","title":" TN","rcType":"Branch","icon":"regions"},{"position":{"lat":35.0520107,"lng":-89.844838},"address":" 3545 Kirby Pkwy.","zip":"","state":" TN","city":" Memphis","title":" TN","rcType":"Branch","icon":"regions"},{"position":{"lat":35.0944208,"lng":-89.9689875},"address":" 2800 Lamar Ave.","zip":"","state":" TN","city":" Memphis","title":" TN","rcType":"Branch","icon":"regions"},{"position":{"lat":35.1362856,"lng":-90.0145508},"address":" 1415 Union Ave.","zip":"","state":" TN","city":" Memphis","title":" TN","rcType":"Branch","icon":"regions"},{"position":{"lat":35.1340473,"lng":-89.993361},"address":" 2053 Union Ave.","zip":"","state":" TN","city":" Memphis","title":" TN","rcType":"Branch","icon":"regions"},{"position":{"lat":35.129063,"lng":-89.9515365},"address":" 3307 Poplar Ave.","zip":"","state":" TN","city":" Memphis","title":" TN","rcType":"Branch","icon":"regions"},{"position":{"lat":35.1029156,"lng":-89.85545599999999},"address":" 6200 Poplar Ave.","zip":"","state":" TN","city":" Memphis","title":" TN","rcType":"Branch","icon":"regions"},{"position":{"lat":35.2333043,"lng":-89.89607939999999},"address":" 3954 Austin Peay Hwy.","zip":"","state":" TN","city":" Memphis","title":" TN","rcType":"Branch","icon":"regions"},{"position":{"lat":35.0995052,"lng":-89.8598186},"address":" 1171 Ridgeway Rd.","zip":"","state":" TN","city":" Memphis","title":" TN","rcType":"Branch","icon":"regions"},{"position":{"lat":35.0217051,"lng":-89.83173630000002},"address":" 4643 Riverdale Rd.","zip":"","state":" TN","city":" Memphis","title":" TN","rcType":"Branch","icon":"regions"},{"position":{"lat":35.0958733,"lng":-90.056687},"address":" 1889 South 3rd St.","zip":"","state":" TN","city":" Memphis","title":" TN","rcType":"Branch","icon":"regions"},{"position":{"lat":35.0516358,"lng":-89.7959786},"address":" 3577 Hacks Cross Rd.","zip":"","state":" TN","city":" Memphis","title":" TN","rcType":"Branch","icon":"regions"},{"position":{"lat":35.1150196,"lng":-89.9022857},"address":" 4790 Poplar Ave.","zip":"","state":" TN","city":" Memphis","title":" TN","rcType":"Branch","icon":"regions"},{"position":{"lat":35.0538926,"lng":-90.02559989999999},"address":" 3471 Elvis Presley Blvd.","zip":"","state":" TN","city":" Memphis","title":" TN","rcType":"Branch","icon":"regions"},{"position":{"lat":35.0214786,"lng":-90.02441429999999},"address":" 1190 East Shelby Dr.","zip":"","state":" TN","city":" Memphis","title":" TN","rcType":"Branch","icon":"regions"},{"position":{"lat":34.6345264,"lng":-89.969425},"address":" 5641 Highway 51 N","zip":"","state":" MS","city":" Senatobia","title":" MS","rcType":"Branch","icon":"regions"},{"position":{"lat":34.9615302,"lng":-89.8309404},"address":" 8975 East Goodman Rd.","zip":"","state":" MS","city":" Olive Branch","title":" MS","rcType":"Branch","icon":"regions"},{"position":{"lat":35.553263,"lng":-89.656792},"address":"1009 Highway 51 S","zip":"","state":" TN","city":" Covington","title":" TN","rcType":"Branch","icon":"regions"},{"position":{"lat":35.4473998,"lng":-89.8146122},"address":" 86 South Tipton St.","zip":"","state":" TN","city":" Munford","title":" TN","rcType":"Branch","icon":"regions"},{"position":{"lat":35.2709952,"lng":-89.6663019},"address":" 4900 Milton Wilson Blvd.","zip":"","state":" TN","city":" Arlington","title":" TN","rcType":"Branch","icon":"regions"},{"position":{"lat":35.5931773,"lng":-89.2517317},"address":" 1028 East Main St.","zip":"","state":" TN","city":" Brownsville","title":" TN","rcType":"Branch","icon":"regions"},{"position":{"lat":35.7472705,"lng":-89.5531357},"address":" 662 Highway 51 N","zip":"","state":" TN","city":" Ripley","title":" TN","rcType":"Branch","icon":"regions"}]